,city,city_id,date,lat,lon,country,maxTemp,cloudiness,humidity,windSpeed
0,hasaki,2112802,01 Apr 2019,35.73,140.83,JP,275.37,75,93,2.1
1,fairbanks,5861897,01 Apr 2019,64.84,-147.72,US,276.48,1,82,1.5
2,airai,1651810,01 Apr 2019,-8.93,125.41,TL,293.5,24,90,0.67
3,balkanabat,161616,01 Apr 2019,39.51,54.36,TM,283.75,92,94,2.47
4,lagoa,2267254,01 Apr 2019,37.14,-8.45,PT,290.15,20,72,7.7
5,la paz,4000900,01 Apr 2019,24.15,-110.32,MX,303.71,5,30,4.6
6,wanning,3220813,01 Apr 2019,48.64,13.53,AT,285.15,0,75,5.1
7,nhulunbuy,2064735,01 Apr 2019,-12.18,136.78,AU,298.15,75,94,2.6
8,khandyga,2022773,01 Apr 2019,62.65,135.58,RU,256.95,0,64,1.12
9,khanna,1267016,01 Apr 2019,30.7,76.22,IN,293.0,0,55,2.02
10,atuona,4020109,01 Apr 2019,-9.8,-139.03,PF,300.65,68,100,5.52
11,rikitea,4030556,01 Apr 2019,-23.12,-134.97,PF,297.95,44,100,6.09
12,honiara,2108502,01 Apr 2019,-9.43,159.96,SB,296.4,56,100,0.47
13,ushuaia,3833367,01 Apr 2019,-54.81,-68.31,AR,284.15,75,93,2.1
14,qaanaaq,3831208,01 Apr 2019,77.48,-69.36,GL,257.9,44,84,2.64
15,nome,4732862,01 Apr 2019,30.04,-94.42,US,289.15,90,41,4.1
16,mataura,6201424,01 Apr 2019,-46.19,168.86,NZ,282.04,92,83,4.84
17,waipawa,2185329,01 Apr 2019,-39.94,176.59,NZ,285.37,12,89,2.68
18,jamestown,2069194,01 Apr 2019,-33.21,138.6,AU,280.15,0,84,2.49
19,yima,1786676,01 Apr 2019,34.75,111.87,CN,281.8,64,47,2.04
20,salalah,286621,01 Apr 2019,17.01,54.1,OM,300.15,20,69,3.1
21,chokurdakh,2126123,01 Apr 2019,70.62,147.9,RU,255.7,0,53,4.32
22,hobart,2163355,01 Apr 2019,-42.88,147.33,AU,280.37,20,87,4.6
23,port alfred,964432,01 Apr 2019,-33.59,26.89,ZA,290.93,32,76,3.13
24,yellowknife,6185377,01 Apr 2019,62.45,-114.38,CA,267.04,20,62,9.3
25,victoria,1733782,01 Apr 2019,5.28,115.24,BN,298.15,75,88,3.02
26,east london,1006984,01 Apr 2019,-33.02,27.91,ZA,289.15,0,63,8.2
27,labuhan,1641899,01 Apr 2019,-2.54,115.51,ID,295.35,20,97,0.72
28,faanui,4034551,01 Apr 2019,-16.48,-151.75,PF,301.7,88,100,3.09
29,tiksi,2015306,01 Apr 2019,71.64,128.87,RU,259.3,0,68,1.14
30,ribeira grande,3372707,01 Apr 2019,38.52,-28.7,PT,288.15,75,67,7.2
31,hermanus,3366880,01 Apr 2019,-34.42,19.24,ZA,287.59,12,67,2.68
32,busselton,2075265,01 Apr 2019,-33.64,115.35,AU,290.93,92,61,5.07
33,los llanos de aridane,2514651,01 Apr 2019,28.66,-17.92,ES,289.15,90,87,4.6
34,syracuse,5140405,01 Apr 2019,43.05,-76.15,US,275.93,1,43,3.6
35,santa maria,3450083,01 Apr 2019,-29.69,-53.81,BR,304.15,20,58,4.6
36,bredasdorp,1015776,01 Apr 2019,-34.53,20.04,ZA,289.75,68,95,3.97
37,saint-philippe,6138908,01 Apr 2019,45.36,-73.48,CA,274.82,1,40,3.6
38,butaritari,2110227,01 Apr 2019,3.07,172.79,KI,301.2,48,100,4.62
39,avarua,4035715,01 Apr 2019,-21.21,-159.78,CK,300.15,88,78,4.1
40,georgetown,3378644,01 Apr 2019,6.8,-58.16,GY,304.75,0,53,3.74
41,lompoc,5367788,01 Apr 2019,34.64,-120.46,US,298.15,1,49,0.92
42,hithadhoo,1282256,01 Apr 2019,-0.6,73.08,MV,301.8,76,100,2.72
43,kaeo,2189343,01 Apr 2019,-35.1,173.78,NZ,288.71,12,96,3.94
44,petropavlovsk-kamchatskiy,2122104,01 Apr 2019,53.05,158.65,RU,271.15,75,92,2.0
45,leningradskiy,2123814,01 Apr 2019,69.38,178.42,RU,262.5,64,91,5.97
46,shache,1280037,01 Apr 2019,38.42,77.24,CN,282.59,0,31,1.47
47,dharmavaram,1272842,01 Apr 2019,14.41,77.72,IN,295.05,44,82,2.52
48,port blair,1259385,01 Apr 2019,11.67,92.75,IN,298.15,20,83,0.57
49,vetluga,473910,01 Apr 2019,57.85,45.78,RU,270.85,0,87,1.47
50,gabu,1791785,01 Apr 2019,34.78,103.0,CN,271.25,88,85,3.62
51,bluff,2175403,01 Apr 2019,-23.58,149.07,AU,290.8,0,83,4.27
52,kaitangata,2208248,01 Apr 2019,-46.28,169.85,NZ,280.37,68,76,1.79
53,nikolskoye,546105,01 Apr 2019,59.7,30.79,RU,275.37,0,64,3.0
54,punta arenas,3874787,01 Apr 2019,-53.16,-70.91,CL,286.15,90,93,2.1
55,kichera,2022129,01 Apr 2019,55.93,110.1,RU,259.55,20,62,0.69
56,chuy,3443061,01 Apr 2019,-33.69,-53.46,UY,298.5,8,87,3.69
57,vaini,1273574,01 Apr 2019,15.34,74.49,IN,295.3,0,79,1.44
58,arraial do cabo,3471451,01 Apr 2019,-22.97,-42.02,BR,301.15,0,57,4.6
59,sao joao da barra,3448903,01 Apr 2019,-21.64,-41.05,BR,301.15,75,58,4.1
60,salinas,5391295,01 Apr 2019,36.67,-121.66,US,295.37,20,52,0.39
61,tuatapere,2180815,01 Apr 2019,-46.13,167.69,NZ,282.04,92,83,5.87
62,adoni,1279335,01 Apr 2019,15.63,77.27,IN,301.55,0,46,4.54
63,san cristobal,3652462,01 Apr 2019,-0.39,-78.55,EC,294.15,75,56,5.1
64,cape town,3369157,01 Apr 2019,-33.93,18.42,ZA,288.71,0,67,8.7
65,sept-iles,6144312,01 Apr 2019,50.2,-66.38,CA,273.15,90,58,8.7
66,culebra,5494881,01 Apr 2019,34.68,-105.77,US,283.15,1,66,4.6
67,dicabisagan,1715015,01 Apr 2019,17.08,122.42,PH,295.4,92,100,1.92
68,vanimo,2084442,01 Apr 2019,-2.67,141.3,PG,301.65,76,99,7.64
69,castro,3896218,01 Apr 2019,-42.48,-73.76,CL,285.15,75,87,9.3
70,ponerihouen,2138687,01 Apr 2019,-21.08,165.4,NC,298.65,8,100,5.64
71,karratha,6620339,01 Apr 2019,-20.74,116.85,AU,297.75,0,92,3.52
72,posse,3452599,01 Apr 2019,-14.08,-46.36,BR,302.8,8,67,2.02
73,hopelchen,3527065,01 Apr 2019,19.77,-89.85,MX,305.15,20,43,4.1
74,klaksvik,2618795,01 Apr 2019,62.23,-6.59,FO,275.15,64,93,4.6
75,albany,5106834,01 Apr 2019,42.65,-73.75,US,278.15,1,29,7.7
76,savannah bight,3601402,01 Apr 2019,16.45,-85.85,HN,300.1,0,97,3.37
77,saint-joseph,3037456,01 Apr 2019,43.56,6.97,FR,289.15,0,51,1.5
78,hilo,5855927,01 Apr 2019,19.71,-155.08,US,296.48,90,73,1.5
79,tasiilaq,3424607,01 Apr 2019,65.61,-37.64,GL,269.15,90,62,6.2
80,seoul,1835848,01 Apr 2019,37.57,126.98,KR,277.15,1,86,0.5
81,phimai,1607716,01 Apr 2019,15.22,102.49,TH,304.26,48,69,2.6
82,upernavik,3418910,01 Apr 2019,72.79,-56.15,GL,265.15,8,100,3.59
83,meulaboh,1214488,01 Apr 2019,4.14,96.13,ID,300.3,92,100,0.14
84,huarmey,3939168,01 Apr 2019,-10.07,-78.15,PE,298.3,44,65,1.84
85,pangody,1495626,01 Apr 2019,65.85,74.49,RU,267.8,36,85,4.87
86,kapaa,5848280,01 Apr 2019,22.08,-159.32,US,295.93,20,73,3.1
87,mae hong son,1152222,01 Apr 2019,19.3,97.96,MM,292.0,0,68,0.72
88,kyren,2021031,01 Apr 2019,51.68,102.13,RU,264.4,0,69,0.84
89,tual,1623197,01 Apr 2019,-5.67,132.75,ID,299.55,68,100,5.49
90,chicama,3698359,01 Apr 2019,-7.84,-79.15,PE,295.15,40,83,6.2
91,namie,2111704,01 Apr 2019,37.52,140.86,JP,277.04,24,56,2.24
92,victor harbor,2059470,01 Apr 2019,-35.55,138.62,AU,285.37,0,87,1.5
93,ankara,323786,01 Apr 2019,39.92,32.85,TR,282.15,40,56,4.6
94,bulungu,2316259,01 Apr 2019,-4.54,18.6,CD,298.05,8,88,1.72
95,pevek,2122090,01 Apr 2019,69.7,170.27,RU,259.75,36,68,2.57
96,wageningen,2745088,01 Apr 2019,51.98,5.66,NL,286.48,0,61,1.5
97,ixtapa,4004293,01 Apr 2019,20.71,-105.21,MX,299.15,5,65,2.1
98,tursunzoda,1220301,01 Apr 2019,38.51,68.23,UZ,288.15,20,51,2.0
99,puerto escondido,3520994,01 Apr 2019,15.86,-97.07,MX,302.15,5,70,4.1
100,bethel,5880568,01 Apr 2019,60.79,-161.76,US,274.15,90,86,2.02
101,verkhnevilyuysk,2013639,01 Apr 2019,63.45,120.31,RU,267.1,0,82,2.87
102,puerto ayora,3652764,01 Apr 2019,-0.74,-90.35,EC,303.15,20,70,7.2
103,dunedin,2191562,01 Apr 2019,-45.87,170.5,NZ,282.59,36,68,7.6
104,gazanjyk,161974,01 Apr 2019,39.24,55.52,TM,285.6,68,76,5.27
105,san patricio,3437029,01 Apr 2019,-26.98,-56.83,PY,302.15,48,71,1.17
106,bakel,2252606,01 Apr 2019,14.9,-12.46,SN,311.9,0,22,2.62
107,dikson,1507390,01 Apr 2019,73.51,80.55,RU,269.15,24,94,10.84
108,bambous virieux,1106677,01 Apr 2019,-20.34,57.76,MU,297.59,20,83,1.0
109,lorengau,2092164,01 Apr 2019,-2.02,147.27,PG,301.45,48,98,5.09
110,dingle,1714733,01 Apr 2019,11.0,122.67,PH,296.75,36,91,5.17
111,najran,103630,01 Apr 2019,17.54,44.22,SA,303.15,40,28,4.1
112,basco,4863349,01 Apr 2019,40.33,-91.2,US,283.71,1,46,7.2
113,kaduqli,373141,01 Apr 2019,11.01,29.72,SD,300.1,0,22,3.99
114,alta floresta,6316343,01 Apr 2019,-9.87,-56.08,BR,306.15,75,59,1.5
115,namibe,3347019,01 Apr 2019,-15.19,12.15,AO,300.55,20,94,7.79
116,nouadhibou,2377457,01 Apr 2019,20.93,-17.03,MR,294.15,0,68,6.7
117,darhan,2031964,01 Apr 2019,49.49,105.92,MN,268.8,24,66,2.34
118,grindavik,3416888,01 Apr 2019,63.84,-22.43,IS,274.82,75,80,7.2
119,sisimiut,3419842,01 Apr 2019,66.94,-53.67,GL,267.75,44,88,1.14
120,buala,2109528,01 Apr 2019,-8.15,159.59,SB,300.05,80,97,2.39
121,sorland,3137469,01 Apr 2019,67.67,12.69,NO,278.15,75,98,0.5
122,ciudad bolivar,3645532,01 Apr 2019,8.12,-63.55,VE,309.9,0,30,5.79
123,sitka,4267710,01 Apr 2019,37.17,-99.65,US,284.82,0,53,4.02
124,sao filipe,3374210,01 Apr 2019,14.9,-24.5,CV,295.4,0,93,6.52
125,baykalovo,581049,01 Apr 2019,64.58,40.26,RU,272.15,40,54,4.0
126,cururupu,3401148,01 Apr 2019,-1.82,-44.87,BR,297.5,92,100,2.14
127,tezu,1254709,01 Apr 2019,27.93,96.16,IN,285.0,92,100,0.67
128,luderitz,3355672,01 Apr 2019,-26.65,15.16,NA,291.05,0,68,9.64
129,longyearbyen,2729907,01 Apr 2019,78.22,15.63,NO,261.15,20,60,5.1
130,luanda,2240449,01 Apr 2019,-8.83,13.24,AO,303.15,20,74,3.1
131,nago,3172402,01 Apr 2019,45.88,10.89,IT,293.15,0,36,1.0
132,lasa,146639,01 Apr 2019,34.92,32.53,CY,287.15,40,76,1.5
133,mahebourg,934322,01 Apr 2019,-20.41,57.7,MU,297.59,20,83,1.0
134,tuktoyaktuk,6170031,01 Apr 2019,69.44,-133.03,CA,257.15,20,84,4.6
135,haines junction,5969025,01 Apr 2019,60.75,-137.51,CA,274.75,0,51,0.77
136,baghdad,98182,01 Apr 2019,33.3,44.38,IQ,285.45,8,91,3.69
137,kavieng,2094342,01 Apr 2019,-2.57,150.8,PG,301.6,20,100,4.89
138,sindor,492860,01 Apr 2019,62.87,51.9,RU,268.7,12,76,3.77
139,hay river,5972762,01 Apr 2019,60.82,-115.79,CA,270.15,40,63,7.2
140,bonfim,3379316,01 Apr 2019,3.36,-59.84,GY,311.0,0,30,5.94
141,ancud,3899695,01 Apr 2019,-41.87,-73.83,CL,285.15,75,87,9.3
142,ponta do sol,3453439,01 Apr 2019,-20.63,-46.0,BR,299.65,64,63,1.84
143,carnarvon,1014034,01 Apr 2019,-30.97,22.13,ZA,286.5,0,29,4.97
144,merauke,2082539,01 Apr 2019,-8.49,140.4,ID,297.25,92,100,3.09
145,beira,3119841,01 Apr 2019,43.2,-8.36,ES,290.37,0,77,4.1
146,araceli,1730272,01 Apr 2019,10.55,119.99,PH,301.0,0,95,10.57
147,kodiak,4407665,01 Apr 2019,39.95,-94.76,US,286.48,1,13,7.2
148,chapais,5919850,01 Apr 2019,49.78,-74.86,CA,269.15,75,53,4.6
149,fortuna,2517679,01 Apr 2019,38.18,-1.13,ES,289.15,40,77,3.6
150,san pedro,3428576,01 Apr 2019,-33.68,-59.66,AR,296.7,92,90,4.19
151,kruisfontein,986717,01 Apr 2019,-34.0,24.73,ZA,288.55,8,73,6.09
152,iqaluit,5983720,01 Apr 2019,63.75,-68.52,CA,259.15,40,71,2.6
153,severo-kurilsk,2121385,01 Apr 2019,50.68,156.12,RU,270.45,88,100,2.87
154,moyuta,3592322,01 Apr 2019,14.04,-90.08,GT,305.25,0,47,2.42
155,mar del plata,3863379,01 Apr 2019,-46.43,-67.52,AR,294.25,92,47,9.27
156,rio gallegos,3838859,01 Apr 2019,-51.62,-69.22,AR,288.15,75,51,2.1
157,port lincoln,2063036,01 Apr 2019,-34.72,135.86,AU,288.35,0,100,4.97
158,ilulissat,3423146,01 Apr 2019,69.22,-51.1,GL,264.15,20,66,10.8
159,manicore,3663503,01 Apr 2019,-5.81,-61.3,BR,306.15,40,55,2.1
160,launceston,2160517,01 Apr 2019,-41.43,147.14,AU,284.26,90,81,2.1
161,aklavik,5882953,01 Apr 2019,68.22,-135.01,CA,267.15,75,85,2.1
162,denpasar,1645528,01 Apr 2019,-8.65,115.22,ID,299.15,20,88,2.1
163,conde,3465713,01 Apr 2019,-11.81,-37.61,BR,301.7,48,86,2.97
164,maamba,908718,01 Apr 2019,-17.36,27.22,ZM,295.3,0,48,1.74
165,taksimo,2015701,01 Apr 2019,56.36,114.84,RU,258.95,0,70,0.69
166,half moon bay,5354943,01 Apr 2019,37.46,-122.43,US,292.59,90,82,2.6
167,ardakan,143073,01 Apr 2019,32.31,54.02,IR,295.15,20,35,3.1
168,homer,5864145,01 Apr 2019,59.64,-151.54,US,278.71,40,86,2.6
169,barrow,3833859,01 Apr 2019,-38.31,-60.23,AR,303.1,8,38,3.97
170,senneterre,6144195,01 Apr 2019,48.39,-77.24,CA,275.15,75,34,4.6
171,nanortalik,3421765,01 Apr 2019,60.14,-45.24,GL,271.0,92,100,7.54
172,daia,679822,01 Apr 2019,43.99,25.99,RO,288.71,0,43,6.7
173,yugorsk,1502725,01 Apr 2019,61.32,63.33,RU,273.1,80,93,5.64
174,tazmalt,2477537,01 Apr 2019,36.39,4.4,DZ,290.15,75,88,2.1
175,tarakan,1624725,01 Apr 2019,3.3,117.63,ID,299.55,44,100,1.07
176,salvador,3450554,01 Apr 2019,-12.98,-38.48,BR,302.15,40,79,3.6
177,dabhol,1273765,01 Apr 2019,17.6,73.17,IN,297.15,0,99,2.64
178,port elizabeth,4501427,01 Apr 2019,39.31,-74.98,US,282.04,1,33,6.7
179,cidreira,3466165,01 Apr 2019,-30.17,-50.22,BR,301.0,0,69,4.49
180,charters towers,2171722,01 Apr 2019,-20.07,146.27,AU,292.2,44,96,2.84
181,geraldton,5960603,01 Apr 2019,49.72,-86.95,CA,273.15,75,67,4.6
182,lebu,344979,01 Apr 2019,8.96,38.73,ET,290.15,75,63,5.7
183,kalininsk,554199,01 Apr 2019,51.5,44.48,RU,274.15,36,92,3.14
184,codrington,2160063,01 Apr 2019,-28.95,153.24,AU,291.15,75,93,1.34
185,puerto narino,3671387,01 Apr 2019,-3.77,-70.38,CO,299.15,75,94,2.1
186,huangzhai,1807687,01 Apr 2019,23.86,112.01,CN,289.4,100,100,1.29
187,mattru,2409215,01 Apr 2019,7.62,-11.83,SL,305.0,44,62,3.42
188,clermont,2171365,01 Apr 2019,-22.82,147.64,AU,286.55,0,84,2.17
189,barcelona,3128760,01 Apr 2019,41.38,2.18,ES,288.71,0,76,2.6
190,takoradi,2294915,01 Apr 2019,4.89,-1.75,GH,302.0,0,95,3.99
191,arcelia,4018320,01 Apr 2019,18.32,-100.28,MX,302.3,0,20,1.37
192,halifax,6324729,01 Apr 2019,44.65,-63.58,CA,277.59,75,59,9.8
193,souillac,3026644,01 Apr 2019,45.6,-0.6,FR,288.15,0,62,5.1
194,phan thiet,1571058,01 Apr 2019,10.93,108.1,VN,298.75,0,99,4.94
195,swan hill,2147756,01 Apr 2019,-35.34,143.56,AU,280.95,0,87,1.34
196,mascota,3996472,01 Apr 2019,20.53,-104.79,MX,299.15,5,65,2.1
197,ewa beach,5855051,01 Apr 2019,21.32,-158.01,US,297.59,1,69,1.5
198,nador,2541479,01 Apr 2019,35.17,-2.93,MA,290.15,0,72,2.1
199,itoman,1861280,01 Apr 2019,26.12,127.67,JP,288.15,20,51,4.1
200,puksoozero,504187,01 Apr 2019,62.59,40.61,RU,270.7,12,88,3.19
201,fonte boa,3664207,01 Apr 2019,-2.51,-66.09,BR,305.75,24,63,1.67
202,fukue,1848373,01 Apr 2019,35.03,136.69,JP,279.15,20,100,8.7
203,lavrentiya,4031637,01 Apr 2019,65.58,-170.99,RU,268.5,76,99,0.47
204,yelovo,467711,01 Apr 2019,57.05,54.92,RU,271.9,0,94,1.84
205,norman wells,6089245,01 Apr 2019,65.28,-126.83,CA,270.15,90,73,4.1
206,katsuura,1865309,01 Apr 2019,33.93,134.5,JP,278.71,20,60,2.1
207,megion,1499053,01 Apr 2019,61.04,76.11,RU,275.15,0,69,6.0
208,tura,1254046,01 Apr 2019,25.52,90.21,IN,291.15,8,95,1.89
209,waitati,2179825,01 Apr 2019,-45.75,170.57,NZ,282.59,36,68,7.6
210,deputatskiy,2028164,01 Apr 2019,69.3,139.9,RU,248.0,0,38,1.92
211,clyde river,5924351,01 Apr 2019,70.47,-68.59,CA,255.15,75,84,2.6
212,isangel,2136825,01 Apr 2019,-19.55,169.27,VU,294.15,100,94,0.5
213,juneau,5554072,01 Apr 2019,58.3,-134.42,US,280.15,20,74,1.5
214,wajima,1848976,01 Apr 2019,37.4,136.9,JP,277.2,88,100,4.14
215,mopipi,933288,01 Apr 2019,-21.2,24.86,BW,301.0,36,37,4.14
216,rayagada,1258289,01 Apr 2019,19.17,83.42,IN,290.5,8,92,0.62
217,narsaq,3421719,01 Apr 2019,60.91,-46.05,GL,268.15,75,49,1.5
218,lac-megantic,6032673,01 Apr 2019,45.58,-70.88,CA,269.82,75,45,10.8
219,hovd,7626384,01 Apr 2019,63.83,10.7,NO,278.15,0,86,2.6
220,cherskiy,2126199,01 Apr 2019,68.75,161.3,RU,262.5,88,66,1.74
221,saskylakh,2017155,01 Apr 2019,71.97,114.09,RU,261.0,0,66,1.69
222,beringovskiy,2126710,01 Apr 2019,63.05,179.32,RU,271.5,80,90,4.22
223,arlit,2447513,01 Apr 2019,18.74,7.39,NE,304.45,0,24,1.22
224,ambunti,2100933,01 Apr 2019,-4.22,142.82,PG,296.5,92,100,0.94
225,vila franca do campo,3372472,01 Apr 2019,37.72,-25.43,PT,287.15,75,71,10.3
226,maniitsoq,3421982,01 Apr 2019,65.42,-52.9,GL,267.75,8,86,3.99
227,igarka,1505991,01 Apr 2019,67.47,86.57,RU,268.65,76,87,4.77
228,gararu,3399051,01 Apr 2019,-9.97,-37.08,BR,302.95,76,69,4.87
229,cedro,3402340,01 Apr 2019,-6.61,-39.06,BR,300.5,92,87,2.07
230,lakatoro,2136697,01 Apr 2019,-16.11,167.42,VU,299.4,48,99,4.37
231,gazimurskiy zavod,2024122,01 Apr 2019,51.55,118.33,RU,257.8,0,72,1.44
232,padang,1633419,01 Apr 2019,-0.92,100.36,ID,301.4,80,100,1.37
233,makasar,1642911,01 Apr 2019,-6.28,106.88,ID,299.82,20,83,3.6
234,orange cove,5379533,01 Apr 2019,36.62,-119.31,US,297.04,1,43,2.1
235,cabo san lucas,3985710,01 Apr 2019,22.89,-109.91,MX,303.15,5,41,5.1
236,ritchie,961226,01 Apr 2019,-29.03,24.6,ZA,292.15,0,29,1.0
237,mehamn,778707,01 Apr 2019,71.03,27.85,NO,272.15,40,74,5.1
238,loudi,1802238,01 Apr 2019,27.73,112.0,CN,285.8,76,88,0.79
239,rebrikha,1493722,01 Apr 2019,53.08,82.34,RU,265.9,0,76,1.59
240,aksu,1524298,01 Apr 2019,52.04,76.93,KZ,277.15,0,80,1.0
241,garden city,5118226,01 Apr 2019,40.73,-73.63,US,281.48,1,33,5.7
242,boyuibe,3923015,01 Apr 2019,-20.43,-63.28,BO,300.15,75,69,2.1
243,viransehir,298033,01 Apr 2019,37.24,39.76,TR,283.55,80,95,2.97
244,kamphaeng phet,1153090,01 Apr 2019,16.47,99.53,TH,300.25,48,63,2.84
245,esperance,3573739,01 Apr 2019,10.24,-61.45,TT,305.15,40,46,7.2
246,itarema,3393692,01 Apr 2019,-2.92,-39.92,BR,301.7,76,91,2.19
247,gumdag,161943,01 Apr 2019,39.2,54.59,TM,286.65,92,92,3.39
248,douentza,2458334,01 Apr 2019,15.01,-2.95,ML,309.2,64,31,1.24
249,college,5859699,01 Apr 2019,64.86,-147.8,US,277.59,1,82,1.5
250,upata,3625710,01 Apr 2019,8.02,-62.41,VE,306.48,0,46,2.68
251,jumla,1283285,01 Apr 2019,29.28,82.18,NP,270.15,0,94,1.04
252,pangkalanbuun,1632694,01 Apr 2019,-2.68,111.62,ID,296.15,32,94,1.02
253,thompson,6165406,01 Apr 2019,55.74,-97.86,CA,273.15,90,74,4.1
254,brae,2654970,01 Apr 2019,60.4,-1.35,GB,279.15,80,75,12.3
255,new norfolk,2155415,01 Apr 2019,-42.78,147.06,AU,280.37,20,87,4.6
256,north bend,5742974,01 Apr 2019,43.41,-124.22,US,287.04,90,100,0.72
257,caravelas,3466980,01 Apr 2019,-17.73,-39.27,BR,300.4,0,100,4.27
258,morehead,4301307,01 Apr 2019,38.18,-83.43,US,279.82,1,28,2.1
259,bathsheba,3374083,01 Apr 2019,13.22,-59.52,BB,302.15,40,62,9.8
260,tuma,480484,01 Apr 2019,55.15,40.55,RU,272.04,100,66,1.79
261,mbaiki,2384770,01 Apr 2019,3.87,17.99,CF,298.2,12,87,0.92
262,egvekinot,4031742,01 Apr 2019,66.32,-179.17,RU,267.9,64,91,0.77
263,fernley,5504003,01 Apr 2019,39.61,-119.25,US,288.71,75,35,2.1
264,russell,3844421,01 Apr 2019,-33.01,-68.8,AR,299.15,20,47,1.5
265,guerrero negro,4021858,01 Apr 2019,27.97,-114.04,MX,298.3,8,35,1.57
266,orotina,3622660,01 Apr 2019,9.91,-84.53,CR,304.15,0,38,2.1
267,verkhnyaya inta,1487332,01 Apr 2019,65.99,60.32,RU,270.8,80,79,3.24
268,saldanha,2737599,01 Apr 2019,41.42,-6.55,PT,289.25,92,39,2.17
269,guhagar,1270779,01 Apr 2019,17.48,73.19,IN,297.15,0,99,2.64
270,oktyabrskiy,515873,01 Apr 2019,55.61,37.97,RU,275.37,75,80,6.0
271,goure,2444219,01 Apr 2019,13.98,10.27,NE,307.15,8,11,5.19
272,westport,2960970,01 Apr 2019,53.8,-9.52,IE,278.71,75,93,3.6
273,okhotsk,2122605,01 Apr 2019,59.36,143.24,RU,265.75,12,87,3.42
274,makakilo city,5850554,01 Apr 2019,21.35,-158.09,US,297.59,1,69,1.5
275,marienburg,2803461,01 Apr 2019,52.12,9.98,DE,282.59,0,36,4.1
276,ahipara,2194098,01 Apr 2019,-35.17,173.16,NZ,290.55,36,100,5.19
277,ponta delgada,3372783,01 Apr 2019,37.73,-25.67,PT,287.15,75,71,10.3
278,birjand,140463,01 Apr 2019,32.86,59.22,IR,292.15,90,33,8.2
279,nelson bay,2155562,01 Apr 2019,-32.72,152.14,AU,291.48,75,100,3.1
280,meadow lake,6071421,01 Apr 2019,54.13,-108.44,CA,278.15,90,56,9.3
281,tessalit,2449893,01 Apr 2019,20.2,1.01,ML,306.0,0,22,2.92
282,marsh harbour,3571913,01 Apr 2019,26.54,-77.06,BS,298.05,32,99,3.02
283,luziania,3458329,01 Apr 2019,-16.25,-47.95,BR,300.15,40,51,2.6
284,fort nelson,5955902,01 Apr 2019,58.81,-122.69,CA,277.15,40,55,1.5
285,vestmannaeyjar,3412093,01 Apr 2019,63.44,-20.27,IS,273.15,40,89,6.2
286,santa isabel do rio negro,3662489,01 Apr 2019,-0.41,-65.02,BR,301.7,92,84,1.34
287,ipaussu,3450272,01 Apr 2019,-23.06,-49.63,BR,304.15,0,44,2.52
288,mount gambier,2156643,01 Apr 2019,-37.83,140.78,AU,279.15,20,93,1.17
289,inongo,2315417,01 Apr 2019,-1.93,18.29,CD,300.1,20,78,0.72
290,saint george,262462,01 Apr 2019,39.45,22.34,GR,287.59,0,62,2.6
291,yulara,6355222,01 Apr 2019,-25.24,130.99,AU,288.15,0,30,2.6
292,ginda,1253628,01 Apr 2019,30.69,78.49,IN,278.8,0,62,1.04
293,killybegs,2963295,01 Apr 2019,54.63,-8.45,IE,279.15,90,93,6.7
294,amapa,3603330,01 Apr 2019,15.09,-87.97,HN,305.93,40,46,4.6
295,jacareacanga,3397763,01 Apr 2019,-6.22,-57.76,BR,303.05,64,72,1.27
296,camocim,3403687,01 Apr 2019,-2.9,-40.84,BR,301.65,56,92,2.37
297,florianopolis,3463237,01 Apr 2019,-27.6,-48.55,BR,301.48,40,69,4.6
298,tecolutla,3514593,01 Apr 2019,17.31,-98.74,MX,300.95,0,30,1.04
299,matagami,2335713,01 Apr 2019,9.67,8.4,NG,303.5,0,20,3.17
300,hamilton,3573197,01 Apr 2019,32.3,-64.78,BM,295.15,40,68,7.2
301,provideniya,4031574,01 Apr 2019,64.42,-173.23,RU,270.4,56,95,4.27
302,laurel,5661766,01 Apr 2019,45.67,-108.77,US,282.59,75,70,2.6
303,bahia blanca,3865086,01 Apr 2019,-38.72,-62.27,AR,299.4,8,63,2.27
304,atambua,1651103,01 Apr 2019,-9.11,124.89,ID,297.75,56,100,0.92
305,mangan,1263776,01 Apr 2019,27.5,88.54,IN,269.3,12,83,0.79
306,waingapu,1622318,01 Apr 2019,-9.65,120.26,ID,294.5,8,98,1.22
307,lander,5830007,01 Apr 2019,42.83,-108.73,US,282.59,1,52,3.6
308,gao,2457163,01 Apr 2019,16.28,-0.04,ML,310.65,20,19,1.29
309,dovers,3577911,01 Apr 2019,12.88,-61.18,VC,301.15,20,69,3.6
310,jieshi,1805857,01 Apr 2019,22.82,115.83,CN,291.55,36,100,9.12
311,santiago de cao,3692073,01 Apr 2019,-7.96,-79.24,PE,295.15,40,83,6.2
312,beloha,1067565,01 Apr 2019,-25.17,45.06,MG,296.25,0,69,4.74
313,itacoatiara,3397893,01 Apr 2019,-3.14,-58.44,BR,303.15,20,74,2.1
314,saravan,174726,01 Apr 2019,39.72,45.65,AM,280.15,90,65,5.1
315,twin falls,5610810,01 Apr 2019,42.57,-114.46,US,286.15,40,32,2.1
316,kiama,2161515,01 Apr 2019,-34.67,150.86,AU,292.59,40,93,3.1
317,comodoro rivadavia,3860443,01 Apr 2019,-45.87,-67.48,AR,295.15,0,37,4.1
318,hwange,889942,01 Apr 2019,-18.35,26.5,ZW,298.55,20,40,2.47
319,terekli-mekteb,483439,01 Apr 2019,44.16,45.87,RU,279.8,92,93,6.02
320,sri aman,1735799,01 Apr 2019,1.24,111.46,MY,298.15,76,94,0.92
321,chermoz,569122,01 Apr 2019,58.79,56.15,RU,270.55,0,82,5.42
322,meiganga,2227402,01 Apr 2019,6.52,14.29,CM,298.65,0,30,2.47
323,san quintin,1688687,01 Apr 2019,17.54,120.52,PH,293.15,0,84,1.34
324,bushehr,139817,01 Apr 2019,28.97,50.84,IR,294.15,92,60,5.1
325,kudahuvadhoo,1337607,01 Apr 2019,2.67,72.89,MV,301.9,8,100,1.17
326,pacific grove,5380437,01 Apr 2019,36.62,-121.92,US,295.37,20,52,0.39
327,morro bay,5374920,01 Apr 2019,35.37,-120.85,US,298.15,1,36,3.27
328,keflavik,3415496,01 Apr 2019,64.0,-22.56,IS,274.82,75,80,7.2
329,necochea,3430443,01 Apr 2019,-38.55,-58.74,AR,302.25,8,47,4.39
330,mandalgovi,2030065,01 Apr 2019,45.76,106.27,MN,266.4,0,75,0.17
331,la rioja,3848950,01 Apr 2019,-29.41,-66.86,AR,296.65,8,100,2.17
332,yuyao,1785545,01 Apr 2019,30.04,121.15,CN,286.48,0,76,2.0
333,beni mazar,359212,01 Apr 2019,28.5,30.8,EG,288.65,0,25,3.27
334,taltal,3870243,01 Apr 2019,-25.41,-70.49,CL,293.5,0,74,1.49
335,amahai,1651591,01 Apr 2019,-3.31,129.0,ID,302.04,76,80,0.45
336,saint anthony,5606187,01 Apr 2019,43.97,-111.68,US,283.71,20,42,1.69
337,sechura,3691954,01 Apr 2019,-5.56,-80.82,PE,299.15,12,72,4.17
338,bijar,140521,01 Apr 2019,35.87,47.6,IR,275.0,92,99,3.04
339,port lavaca,4720067,01 Apr 2019,28.61,-96.63,US,286.15,90,62,4.6
340,scarborough,2638419,01 Apr 2019,54.28,-0.41,GB,282.15,32,75,4.1
341,torbay,6167817,01 Apr 2019,47.66,-52.73,CA,290.15,75,72,7.2
342,elliot,1005781,01 Apr 2019,-31.33,27.85,ZA,284.05,20,52,1.24
343,whakatane,2208330,01 Apr 2019,-37.96,176.99,NZ,289.26,68,86,5.84
344,kiruna,605155,01 Apr 2019,67.86,20.23,SE,269.15,0,85,4.1
345,broome,2656067,01 Apr 2019,52.47,1.45,GB,283.71,0,81,2.6
346,jiaonan,1792087,01 Apr 2019,35.88,119.98,CN,277.15,0,44,1.0
347,inhambane,1045114,01 Apr 2019,-23.87,35.38,MZ,297.15,0,78,4.84
348,flin flon,5954718,01 Apr 2019,54.77,-101.88,CA,276.15,90,51,6.2
349,abnub,362973,01 Apr 2019,27.27,31.15,EG,287.15,0,47,5.1
350,pierreville,6104329,01 Apr 2019,46.07,-72.81,CA,274.26,1,42,6.7
351,richards bay,962367,01 Apr 2019,-28.77,32.06,ZA,294.3,88,88,7.09
352,coihaique,3894426,01 Apr 2019,-45.58,-72.07,CL,286.15,90,71,8.2
353,yongan,1806687,01 Apr 2019,39.7,113.69,CN,271.2,0,55,0.94
354,kahului,5847411,01 Apr 2019,20.89,-156.47,US,298.15,20,73,2.1
355,zholymbet,1516527,01 Apr 2019,51.74,71.71,KZ,272.25,0,77,0.84
356,quatre cocos,1106643,01 Apr 2019,-20.21,57.76,MU,297.59,20,83,1.0
357,poum,787487,01 Apr 2019,41.28,20.71,MK,283.15,0,27,1.0
358,kranea elassonos,258882,01 Apr 2019,39.95,21.97,GR,287.59,0,62,2.6
359,port macquarie,2152659,01 Apr 2019,-31.43,152.91,AU,290.37,90,100,3.1
360,port hardy,6111862,01 Apr 2019,50.7,-127.42,CA,279.15,40,87,2.6
361,san policarpo,1688696,01 Apr 2019,12.18,125.51,PH,297.25,92,100,4.99
362,manokwari,1636308,01 Apr 2019,-0.87,134.08,ID,299.65,68,100,3.29
363,dongtai,1812228,01 Apr 2019,32.85,120.31,CN,280.8,32,58,5.42
364,reo,2356228,01 Apr 2019,12.32,-2.47,BF,305.65,44,49,2.34
365,knysna,988698,01 Apr 2019,-34.04,23.05,ZA,287.15,75,67,2.1
366,kloulklubed,7671223,01 Apr 2019,7.04,134.26,PW,300.55,56,100,4.97
367,itaituba,3397967,01 Apr 2019,-4.26,-55.99,BR,304.15,20,62,0.99
368,dromolaxia,146400,01 Apr 2019,34.88,33.59,CY,287.15,40,87,4.52
369,cayenne,3382160,01 Apr 2019,4.94,-52.33,GF,302.15,68,70,7.2
370,cockburn town,3576994,01 Apr 2019,21.46,-71.14,TC,299.0,0,100,4.29
371,ipixuna,3408424,01 Apr 2019,-1.76,-48.8,BR,299.15,75,88,2.1
372,howard springs,6301965,01 Apr 2019,-12.5,131.05,AU,301.15,90,88,0.5
373,zyryanka,2119283,01 Apr 2019,65.73,150.89,RU,260.7,80,83,2.49
374,bad windsheim,2953314,01 Apr 2019,49.5,10.42,DE,286.15,1,54,3.1
375,xuddur,49747,01 Apr 2019,4.12,43.89,SO,301.1,0,36,4.14
376,jinchang,1805733,01 Apr 2019,38.52,102.19,CN,271.15,56,56,1.97
377,vao,588365,01 Apr 2019,59.1,26.19,EE,272.25,0,74,4.67
378,dallas,4684888,01 Apr 2019,32.78,-96.8,US,289.26,5,35,3.1
379,pilar,3427208,01 Apr 2019,-34.46,-58.91,AR,301.48,0,74,2.6
380,honningsvag,779554,01 Apr 2019,70.98,25.97,NO,272.15,75,80,4.6
381,vardo,4372777,01 Apr 2019,39.62,-77.74,US,282.04,5,28,4.6
382,nieuw amsterdam,3383434,01 Apr 2019,5.88,-55.08,SR,307.15,20,52,5.1
383,sur,286245,01 Apr 2019,22.57,59.53,OM,299.4,8,81,1.89
384,susanville,5572400,01 Apr 2019,40.42,-120.65,US,286.15,90,51,2.1
385,severodvinsk,496285,01 Apr 2019,64.56,39.82,RU,272.15,40,54,4.0
386,usinsk,863061,01 Apr 2019,66.0,57.56,RU,269.5,44,85,5.79
387,khatanga,2022572,01 Apr 2019,71.98,102.47,RU,269.6,88,88,5.42
388,fallon,5681948,01 Apr 2019,46.84,-105.12,US,279.15,90,35,3.6
389,berlevag,780687,01 Apr 2019,70.86,29.09,NO,272.15,75,80,8.2
390,kecel,3050454,01 Apr 2019,46.52,19.25,HU,286.48,0,32,6.2
391,dharchula,1272864,01 Apr 2019,29.85,80.53,IN,273.45,0,73,0.82
392,berberati,2389086,01 Apr 2019,4.26,15.79,CF,300.7,20,68,1.02
393,dudinka,1507116,01 Apr 2019,69.41,86.18,RU,269.55,92,91,5.32
394,hervey bay,2146219,01 Apr 2019,-25.3,152.85,AU,292.59,40,77,4.1
395,mildura,2157698,01 Apr 2019,-34.18,142.16,AU,283.15,0,76,0.5
396,gari,1506676,01 Apr 2019,59.43,62.35,RU,274.5,92,100,5.22
397,gat,2249901,01 Apr 2019,14.69,-16.54,SN,311.15,0,53,8.2
398,lat yao,1152377,01 Apr 2019,15.75,99.79,TH,302.59,8,71,2.84
399,saint-francois,2980080,01 Apr 2019,46.42,3.91,FR,289.15,0,55,2.6
400,buluang,1717512,01 Apr 2019,10.47,123.98,PH,298.15,90,83,6.2
401,kuusamo,649924,01 Apr 2019,65.96,29.19,FI,272.15,90,80,5.1
402,naze,2337542,01 Apr 2019,5.43,7.07,NG,300.0,56,84,2.04
403,caxito,3451261,01 Apr 2019,-22.65,-42.51,BR,301.15,20,58,4.6
404,kenai,5866063,01 Apr 2019,60.55,-151.26,US,278.15,1,74,0.72
405,bonavista,5905393,01 Apr 2019,48.65,-53.11,CA,278.71,8,85,0.89
406,fairlie,4682762,01 Apr 2019,33.31,-95.96,US,288.71,75,43,3.6
407,kozhva,543246,01 Apr 2019,65.11,57.05,RU,269.1,12,81,3.69
408,gloria do goita,3398920,01 Apr 2019,-8.0,-35.29,BR,300.15,75,78,0.5
409,high level,5975004,01 Apr 2019,58.52,-117.13,CA,277.15,90,60,4.6
410,shebunino,468902,01 Apr 2019,57.66,40.04,RU,274.15,0,74,2.0
411,roma,6539761,01 Apr 2019,41.89,12.48,IT,289.15,0,67,1.5
412,puri,1635111,01 Apr 2019,-7.54,112.45,ID,294.25,92,98,1.57
413,lata,1253628,01 Apr 2019,30.78,78.62,IN,278.8,0,62,1.04
414,gerash,133595,01 Apr 2019,27.67,54.14,IR,296.15,0,35,1.04
415,nuuk,3421319,01 Apr 2019,64.17,-51.74,GL,270.15,75,45,4.6
416,laguna,4013704,01 Apr 2019,27.52,-110.01,MX,302.15,75,20,4.6
417,lae,2092740,01 Apr 2019,-6.72,146.98,PG,294.85,44,97,0.82
418,linda,5366531,01 Apr 2019,39.13,-121.55,US,294.26,20,26,1.5
419,port-gentil,2396518,01 Apr 2019,-0.72,8.78,GA,302.15,20,83,5.7
420,ocean city,4166723,01 Apr 2019,30.44,-86.61,US,293.71,1,34,4.1
421,mahanoro,1062553,01 Apr 2019,-19.9,48.8,MG,296.35,88,99,0.82
422,chara,262462,01 Apr 2019,39.42,22.43,GR,287.59,0,62,2.6
423,touros,3386213,01 Apr 2019,-5.2,-35.46,BR,300.2,92,97,3.07
424,alyangula,2079582,01 Apr 2019,-13.85,136.42,AU,298.15,90,94,6.24
425,constitucion,4011743,01 Apr 2019,23.99,-104.67,MX,297.59,5,13,4.6
426,eureka,5563397,01 Apr 2019,40.8,-124.16,US,287.59,90,100,1.5
427,portland,5746545,01 Apr 2019,45.52,-122.67,US,290.15,75,58,0.89
428,emba,146639,01 Apr 2019,34.81,32.42,CY,286.15,40,82,1.5
429,ostrovnoy,556268,01 Apr 2019,68.05,39.51,RU,267.5,0,82,6.07
430,inirida,3671450,01 Apr 2019,3.87,-67.92,CO,298.2,88,94,0.59
431,saint-pierre,2995603,01 Apr 2019,48.95,4.24,FR,289.15,0,47,3.6
432,avera,4231997,01 Apr 2019,33.19,-82.53,US,289.26,1,26,4.6
433,koumac,2140558,01 Apr 2019,-20.56,164.28,NC,296.25,36,96,2.59
434,kupang,2057087,01 Apr 2019,-10.16,123.6,ID,297.9,8,100,1.12
435,nyurba,2018735,01 Apr 2019,63.29,118.35,RU,268.65,0,80,2.94
436,chauk,1327659,01 Apr 2019,20.89,94.82,MM,295.45,0,85,0.44
437,bilma,2446796,01 Apr 2019,18.69,12.92,NE,301.05,24,17,2.79
438,ayan,749747,01 Apr 2019,40.67,33.6,TR,273.8,8,73,1.67
439,kirove,707679,01 Apr 2019,47.83,38.01,UA,283.45,8,45,3.39
440,tromso,3133895,01 Apr 2019,69.65,18.96,NO,274.15,75,86,12.9
441,verkhoyansk,2013465,01 Apr 2019,67.55,133.39,RU,253.8,24,59,1.17
442,muros,3115824,01 Apr 2019,42.77,-9.06,ES,289.82,20,48,3.1
443,ust-kut,2013923,01 Apr 2019,56.78,105.75,RU,274.9,32,90,4.52
444,calama,3897347,01 Apr 2019,-22.46,-68.93,CL,296.15,20,25,7.7
445,erzin,296852,01 Apr 2019,36.95,36.2,TR,287.15,75,82,2.19
446,ridgecrest,5387494,01 Apr 2019,35.62,-117.67,US,295.37,32,18,1.34
447,swan river,6160362,01 Apr 2019,52.11,-101.27,CA,276.2,0,68,4.74
448,leshukonskoye,535839,01 Apr 2019,64.9,45.76,RU,271.25,80,69,3.82
449,hualmay,3939761,01 Apr 2019,-11.1,-77.61,PE,297.25,24,71,2.49
450,vidim,3070862,01 Apr 2019,50.47,14.53,CZ,282.59,0,39,6.7
451,kutum,371745,01 Apr 2019,14.2,24.66,SD,295.1,0,43,1.47
452,yarada,1252783,01 Apr 2019,17.65,83.27,IN,301.15,40,83,4.6
453,kalmunai,1242110,01 Apr 2019,7.42,81.82,LK,298.75,20,91,1.97
454,fillan,3157656,01 Apr 2019,63.6,8.98,NO,276.15,20,84,4.1
455,sihora,1256340,01 Apr 2019,23.49,80.11,IN,293.5,0,42,1.52
456,jinxiang,1787335,01 Apr 2019,35.07,116.31,CN,278.6,0,61,2.02
457,praia,3460954,01 Apr 2019,-20.25,-43.81,BR,301.15,75,48,1.0
458,coahuayana,3981460,01 Apr 2019,18.62,-100.35,MX,302.3,0,20,1.37
459,auki,2339937,01 Apr 2019,12.18,6.51,NG,306.0,32,16,4.59
460,sistranda,3139597,01 Apr 2019,63.73,8.83,NO,276.15,20,84,4.1
461,tiarei,4033356,01 Apr 2019,-17.53,-149.33,PF,303.15,75,66,3.6
462,te anau,2181625,01 Apr 2019,-45.41,167.72,NZ,277.05,88,91,1.22
463,plotnikovo,1502847,01 Apr 2019,55.04,83.4,RU,270.15,0,86,3.0
464,kadungora,1632197,01 Apr 2019,-7.09,107.89,ID,291.75,44,97,0.79
465,cantapoy,1718886,01 Apr 2019,9.49,125.44,PH,297.2,88,100,3.37
466,kysyl-syr,2021017,01 Apr 2019,63.9,122.77,RU,267.5,24,79,2.59
467,thinadhoo,1337610,01 Apr 2019,0.53,72.93,MV,301.75,88,100,1.97
468,narok,184379,01 Apr 2019,-1.09,35.87,KE,288.25,92,95,1.04
469,ballina,2966778,01 Apr 2019,54.11,-9.15,IE,279.15,75,93,3.6
470,paita,3694112,01 Apr 2019,-5.09,-81.11,PE,290.15,40,290,3.84
471,kamina,214614,01 Apr 2019,-8.74,25.0,CD,296.35,20,86,1.49
472,alice springs,2077895,01 Apr 2019,-23.7,133.88,AU,284.15,0,32,2.1
473,konya,306571,01 Apr 2019,37.87,32.48,TR,280.37,75,81,1.5
474,praia da vitoria,3372760,01 Apr 2019,38.73,-27.07,PT,289.15,75,67,12.64
475,sivaki,2016477,01 Apr 2019,52.63,126.75,RU,260.65,0,67,2.27
476,orel,690038,01 Apr 2019,47.02,29.78,UA,285.15,0,25,5.7
477,valparaiso,4927537,01 Apr 2019,41.47,-87.06,US,281.48,90,52,8.2
478,saint-augustin,3031582,01 Apr 2019,44.83,-0.61,FR,289.15,0,59,3.6
479,flinders,6255012,01 Apr 2019,-34.58,150.85,AU,287.15,40,93,3.1
480,kattivakkam,1267433,01 Apr 2019,13.22,80.32,IN,302.15,20,83,4.6
481,sungairaya,1625908,01 Apr 2019,0.7,108.9,ID,297.75,68,95,1.27
482,beniganj,1276463,01 Apr 2019,27.28,80.45,IN,295.5,0,43,1.59
483,keetmanshoop,3356264,01 Apr 2019,-26.57,18.15,NA,300.15,0,19,3.6
484,chumikan,2025256,01 Apr 2019,54.72,135.31,RU,264.25,0,62,3.19
485,san pablo,1688830,01 Apr 2019,14.07,121.33,PH,300.15,20,69,5.1
486,balikpapan,1650527,01 Apr 2019,-1.24,116.86,ID,298.8,68,100,2.07
487,nabire,1634614,01 Apr 2019,-3.36,135.5,ID,293.55,44,92,0.92
488,tervel,729530,01 Apr 2019,43.43,26.76,BG,285.25,76,50,2.19
489,jalu,86049,01 Apr 2019,29.03,21.55,LY,289.5,0,41,1.14
490,fort morgan,5577158,01 Apr 2019,40.25,-103.8,US,289.15,0,19,8.2
491,kensington,5991080,01 Apr 2019,46.44,-63.64,CA,274.82,90,74,6.7
492,eyl,60019,01 Apr 2019,7.98,49.82,SO,298.4,24,100,2.37
493,myre,2670776,01 Apr 2019,62.25,17.37,SE,277.04,0,69,0.5
494,buochs,2661328,01 Apr 2019,46.97,8.42,CH,288.15,20,58,1.0
495,shingu,1847947,01 Apr 2019,33.72,135.99,JP,281.1,0,100,8.64
496,hofn,2630299,01 Apr 2019,64.25,-15.21,IS,275.15,75,80,1.5
497,giyon,336372,01 Apr 2019,8.53,37.98,ET,288.25,64,95,0.57
498,yendi,2293801,01 Apr 2019,9.45,0.0,GH,306.55,0,56,1.67
499,belen,321572,01 Apr 2019,36.49,36.19,TR,287.15,40,71,6.2
500,smithers,6149996,01 Apr 2019,54.78,-127.17,CA,277.15,5,60,1.0
501,ulma,617486,01 Apr 2019,47.75,29.1,UA,281.5,0,41,5.89
502,leeds,2644688,01 Apr 2019,53.8,-1.54,GB,284.26,40,61,4.6
503,kiunga,2093846,01 Apr 2019,-6.12,141.3,PG,295.45,80,97,1.02
